{"type": "FeatureCollection", "features": [{"type": "Feature", "geometry": {"type": "Point", "coordinates": [16.3732955, 48.2122876]}, "properties": {"name": "THE DISTRICT KEBAB | PIDE | LAHMACUN | PIZZA", "price_level": 2, "rating": 4.8, "number_of_ratings": 1308, "address": "Marc-Aurel-Stra\u00dfe 7, Wien"}}, {"type": "Feature", "geometry": {"type": "Point", "coordinates": [16.3457654, 48.2069912]}, "properties": {"name": "Westpol", "price_level": 2, "rating": 4.8, "number_of_ratings": 709, "address": "Austria, Lerchenfelder Str. 71, Wien"}}, {"type": "Feature", "geometry": {"type": "Point", "coordinates": [16.3632613, 48.2031853]}, "properties": {"name": "Pane \u00e8 Cafe", "price_level": 2, "rating": 4.8, "number_of_ratings": 805, "address": "Elisabethstra\u00dfe 26, Wien"}}, {"type": "Feature", "geometry": {"type": "Point", "coordinates": [16.3537569, 48.20403590000001]}, "properties": {"name": "Pizzis and Cream", "price_level": 2, "rating": 4.7, "number_of_ratings": 654, "address": "Burggasse 25, Wien"}}, {"type": "Feature", "geometry": {"type": "Point", "coordinates": [16.3880164, 48.2168704]}, "properties": {"name": "Coconut Curry", "price_level": 2, "rating": 4.7, "number_of_ratings": 1770, "address": "Praterstra\u00dfe 53, Wien"}}, {"type": "Feature", "geometry": {"type": "Point", "coordinates": [16.3349321, 48.2065558]}, "properties": {"name": "Little India", "price_level": 2, "rating": 4.7, "number_of_ratings": 810, "address": "Koppstra\u00dfe 10, Wien"}}, {"type": "Feature", "geometry": {"type": "Point", "coordinates": [16.3661913, 48.1985681]}, "properties": {"name": "Swing Kitchen", "price_level": 2, "rating": 4.6, "number_of_ratings": 3152, "address": "Operngasse 24, Wien"}}, {"type": "Feature", "geometry": {"type": "Point", "coordinates": [16.3551087, 48.2124246]}, "properties": {"name": "The Long Hall Bar Vienna", "price_level": 2, "rating": 4.6, "number_of_ratings": 1285, "address": "Florianigasse 2, Wien"}}, {"type": "Feature", "geometry": {"type": "Point", "coordinates": [16.4051132, 48.1889098]}, "properties": {"name": "the nice guys", "price_level": 2, "rating": 4.5, "number_of_ratings": 702, "address": "Karl-Farkas-Gasse 18, Wien"}}, {"type": "Feature", "geometry": {"type": "Point", "coordinates": [16.3405186, 48.1954193]}, "properties": {"name": "Salpicon", "price_level": 1, "rating": 4.5, "number_of_ratings": 537, "address": "Mariahilfer Str. 125, Wien"}}], "answer": "We recommend you to go to the nice guys which has a raiting of 4.5 and is located at Karl-Farkas-Gasse 18, Wien. We also suggest THE DISTRICT KEBAB | PIDE | LAHMACUN | PIZZA which has a raiting of 4.8 and is located at Marc-Aurel-Stra\u00dfe 7, Wien. You can also go to Swing Kitchen which has a raiting of 4.6 and is located at Operngasse 24, Wien. We also suggest Westpol which has a raiting of 4.8 and is located at Austria, Lerchenfelder Str. 71, Wien. You can also go to Dschungel Caf\u00e9 which has a raiting of 4.1 and is located at F\u00fcrstenhof, Museumsquartier, Museumsplatz 1/Hof 2, Wien. We also suggest Pizzis and Cream which has a raiting of 4.7 and is located at Burggasse 25, Wien. You can also go to Salpicon which has a raiting of 4.5 and is located at Mariahilfer Str. 125, Wien. We also suggest Caf\u00e9 Zehnsiebzig which has a raiting of 4.5 and is located at Burggasse 68/1, Wien. You can also go to Coconut Curry which has a raiting of 4.7 and is located at Praterstra\u00dfe 53, Wien. We also suggest Ristorante Pizzeria Santa Lucia which has a raiting of 4.5 and is located at Salesianergasse 10, Wien. You can also go to La Delizia which has a raiting of 4.5 and is located at Florianigasse 19, Wien. We also suggest Cafe The Province which has a raiting of 4.3 and is located at Maria-Treu-Gasse 3, Wien. You can also go to Swing Kitchen which has a raiting of 4.5 and is located at Universit\u00e4tsring 10, Wien. We also suggest Vollpension in der Johannesgasse which has a raiting of 4.5 and is located at Johannesgasse 4A, Wien. You can also go to Salettl am Campus which has a raiting of 4.4 and is located at Alser Str. 4, Wien. We also suggest Santos Wieden I Mexican Grill & Bar which has a raiting of 4.4 and is located at Favoritenstra\u00dfe 4/6/2, Wien. You can also go to The Long Hall Bar Vienna which has a raiting of 4.6 and is located at Florianigasse 2, Wien. We also suggest Pane \u00e8 Cafe which has a raiting of 4.8 and is located at Elisabethstra\u00dfe 26, Wien. You can also go to Ponykarussell \u2013 Das Caf\u00e9 which has a raiting of 4.4 and is located at Prater, Karl-Kolarik-Weg 86A, Wien. We also suggest Little India which has a raiting of 4.7 and is located at Koppstra\u00dfe 10, Wien."}