{"type": "FeatureCollection", "features": [{"type": "Feature", "geometry": {"type": "Point", "coordinates": [16.3634941, 48.2116276]}, "properties": {"name": "Lebenbauer", "price_level": 3, "rating": 4.7, "number_of_ratings": 653, "address": "Teinfaltstra\u00dfe 3, Wien"}}, {"type": "Feature", "geometry": {"type": "Point", "coordinates": [16.353302, 48.2135462]}, "properties": {"name": "Restaurant Zur b\u00f6hmischen Kuchl", "price_level": 2, "rating": 4.7, "number_of_ratings": 769, "address": "Schl\u00f6sselgasse 18, Wien"}}, {"type": "Feature", "geometry": {"type": "Point", "coordinates": [16.3626837, 48.2171023]}, "properties": {"name": "Der Wiener Deewan", "price_level": 1, "rating": 4.6, "number_of_ratings": 2953, "address": "Liechtensteinstra\u00dfe 10, Wien"}}, {"type": "Feature", "geometry": {"type": "Point", "coordinates": [16.3591613, 48.2175246]}, "properties": {"name": "Feine Sichuan K\u00fcche", "price_level": 2, "rating": 4.6, "number_of_ratings": 407, "address": "W\u00e4hringer Str. 18, Wien"}}, {"type": "Feature", "geometry": {"type": "Point", "coordinates": [16.3619576, 48.2179244]}, "properties": {"name": "Mr. Noodle", "price_level": 1, "rating": 4.6, "number_of_ratings": 350, "address": "Liechtensteinstra\u00dfe 16, Wien"}}, {"type": "Feature", "geometry": {"type": "Point", "coordinates": [16.3575401, 48.2186557]}, "properties": {"name": "VinziRast-Lokal \"mittendrin\"", "price_level": 1, "rating": 4.6, "number_of_ratings": 540, "address": "W\u00e4hringer Str. 19, Wien"}}, {"type": "Feature", "geometry": {"type": "Point", "coordinates": [16.3514453, 48.21485089999999]}, "properties": {"name": "Asala Halal Food", "price_level": 1, "rating": 4.5, "number_of_ratings": 551, "address": "Alser Str. 21, Wien"}}, {"type": "Feature", "geometry": {"type": "Point", "coordinates": [16.3618223, 48.2128332]}, "properties": {"name": "Swing Kitchen", "price_level": 2, "rating": 4.5, "number_of_ratings": 694, "address": "Universit\u00e4tsring 10, Wien"}}, {"type": "Feature", "geometry": {"type": "Point", "coordinates": [16.3667753, 48.2143872]}, "properties": {"name": "Alles Wurscht", "price_level": 2, "rating": 4.5, "number_of_ratings": 447, "address": "B\u00f6rsepl. 1, Wien"}}, {"type": "Feature", "geometry": {"type": "Point", "coordinates": [16.3560338, 48.21793539999999]}, "properties": {"name": "Caf\u00e9 Negroni", "price_level": 1, "rating": 4.5, "number_of_ratings": 380, "address": "Garnisongasse 24, Wien"}}], "answer": "We recommend you to go to Asala Halal Food which has a raiting of 4.5 and is located at Alser Str. 21, Wien. We also suggest Der Wiener Deewan which has a raiting of 4.6 and is located at Liechtensteinstra\u00dfe 10, Wien. You can also go to Zum Leupold which has a raiting of 4.2 and is located at Schottengasse 7, Wien. We also suggest Centimeter which has a raiting of 4.3 and is located at Lenaugasse 11, Wien. You can also go to Cantinetta Allora which has a raiting of 4.1 and is located at Universit\u00e4tsring 8, Wien. We also suggest Wiener Rathauskeller which has a raiting of 4.1 and is located at Rathauspl. 1, Wien. You can also go to Lebenbauer which has a raiting of 4.7 and is located at Teinfaltstra\u00dfe 3, Wien. We also suggest Swing Kitchen which has a raiting of 4.5 and is located at Universit\u00e4tsring 10, Wien. You can also go to Welt Cafe (world Cafe) which has a raiting of 4.3 and is located at Schwarzspanierstra\u00dfe 15, Wien. We also suggest Oishi which has a raiting of 4.3 and is located at Liechtensteinstra\u00dfe 23, Wien. You can also go to Alles Wurscht which has a raiting of 4.5 and is located at B\u00f6rsepl. 1, Wien. We also suggest Feine Sichuan K\u00fcche which has a raiting of 4.6 and is located at W\u00e4hringer Str. 18, Wien. You can also go to Mr. Noodle which has a raiting of 4.6 and is located at Liechtensteinstra\u00dfe 16, Wien. We also suggest Caf\u00e9 Negroni which has a raiting of 4.5 and is located at Garnisongasse 24, Wien. You can also go to La Delizia which has a raiting of 4.5 and is located at Florianigasse 19, Wien. We also suggest Pizzeria Scarabocchio which has a raiting of 4.5 and is located at Florianigasse 3, Wien. You can also go to Restaurant Zur b\u00f6hmischen Kuchl which has a raiting of 4.7 and is located at Schl\u00f6sselgasse 18, Wien. We also suggest VinziRast-Lokal \"mittendrin\" which has a raiting of 4.6 and is located at W\u00e4hringer Str. 19, Wien. You can also go to Akakiko | Sushi & Asian Fusion which has a raiting of 4.2 and is located at Heidenschu\u00df 3, Wien. We also suggest Restaurant Indien Village which has a raiting of 4.3 and is located at Rockhgasse 3, Wien."}