{"type": "FeatureCollection", "features": [{"type": "Feature", "geometry": {"type": "Point", "coordinates": [16.3418136, 48.2485684]}, "properties": {"name": "Niki's", "price_level": 1, "rating": 4.9, "number_of_ratings": 208, "address": "Grinzinger Allee 17, Wien"}}, {"type": "Feature", "geometry": {"type": "Point", "coordinates": [16.3732955, 48.2122876]}, "properties": {"name": "THE DISTRICT KEBAB | PIDE | LAHMACUN | PIZZA", "price_level": 2, "rating": 4.8, "number_of_ratings": 1302, "address": "Marc-Aurel-Stra\u00dfe 7, Wien"}}, {"type": "Feature", "geometry": {"type": "Point", "coordinates": [16.3880164, 48.2168704]}, "properties": {"name": "Coconut Curry", "price_level": 2, "rating": 4.7, "number_of_ratings": 1768, "address": "Praterstra\u00dfe 53, Wien"}}, {"type": "Feature", "geometry": {"type": "Point", "coordinates": [16.3537569, 48.20403590000001]}, "properties": {"name": "Pizzis and Cream", "price_level": 2, "rating": 4.7, "number_of_ratings": 652, "address": "Burggasse 25, Wien"}}, {"type": "Feature", "geometry": {"type": "Point", "coordinates": [16.3741954, 48.2306186]}, "properties": {"name": "Adriano", "price_level": 2, "rating": 4.7, "number_of_ratings": 1654, "address": "Wallensteinstra\u00dfe 54, Wien"}}, {"type": "Feature", "geometry": {"type": "Point", "coordinates": [16.3318259, 48.2165879]}, "properties": {"name": "Burger Boutique Wien17", "price_level": 2, "rating": 4.6, "number_of_ratings": 1030, "address": "Kalvarienberggasse 21, Wien"}}, {"type": "Feature", "geometry": {"type": "Point", "coordinates": [16.3438345, 48.2123274]}, "properties": {"name": "Albert", "price_level": 2, "rating": 4.6, "number_of_ratings": 421, "address": "Albertgasse 39, Wien"}}, {"type": "Feature", "geometry": {"type": "Point", "coordinates": [16.3551087, 48.2124246]}, "properties": {"name": "The Long Hall Bar Vienna", "price_level": 2, "rating": 4.6, "number_of_ratings": 1280, "address": "Florianigasse 2, Wien"}}, {"type": "Feature", "geometry": {"type": "Point", "coordinates": [16.4051132, 48.1889098]}, "properties": {"name": "the nice guys", "price_level": 2, "rating": 4.5, "number_of_ratings": 700, "address": "Karl-Farkas-Gasse 18, Wien"}}, {"type": "Feature", "geometry": {"type": "Point", "coordinates": [16.3474906, 48.2043567]}, "properties": {"name": "Caf\u00e9 Zehnsiebzig", "price_level": 2, "rating": 4.5, "number_of_ratings": 956, "address": "Burggasse 68/1, Wien"}}]}