{"type": "FeatureCollection", "features": [{"type": "Feature", "geometry": {"type": "Point", "coordinates": [16.3725869, 48.212497]}, "properties": {"name": "SPAR Gourmet", "price_level": 1, "rating": 4.2, "number_of_ratings": 445, "address": "Vorlaufstra\u00dfe 3, Wien"}}, {"type": "Feature", "geometry": {"type": "Point", "coordinates": [16.376217, 48.21094129999999]}, "properties": {"name": "SPAR Gourmet", "price_level": 1, "rating": 4.3, "number_of_ratings": 1003, "address": "Fleischmarkt 5, Wien"}}, {"type": "Feature", "geometry": {"type": "Point", "coordinates": [16.3655427, 48.1888871]}, "properties": {"name": "SPAR Gourmet", "price_level": 1, "rating": 4.3, "number_of_ratings": 411, "address": "Wiedner Hauptstra\u00dfe 73, Wien"}}, {"type": "Feature", "geometry": {"type": "Point", "coordinates": [16.3697964, 48.2019337]}, "properties": {"name": "SPAR Gourmet", "price_level": 1, "rating": 4.2, "number_of_ratings": 1561, "address": "K\u00e4rntner Ring 2, Wien"}}, {"type": "Feature", "geometry": {"type": "Point", "coordinates": [16.3563445, 48.20455339999999]}, "properties": {"name": "SPAR Gourmet", "price_level": 1, "rating": 4.2, "number_of_ratings": 505, "address": "Burggasse 2, Wien"}}, {"type": "Feature", "geometry": {"type": "Point", "coordinates": [16.3768434, 48.1845627]}, "properties": {"name": "INTERSPAR", "price_level": 1, "rating": 4.2, "number_of_ratings": 1633, "address": "Am Hauptbahnhof, UG1.121, 1, Wien"}}, {"type": "Feature", "geometry": {"type": "Point", "coordinates": [16.3769851, 48.2162504]}, "properties": {"name": "SPAR", "price_level": 1, "rating": 4.3, "number_of_ratings": 513, "address": "Hollandstra\u00dfe 11, Wien"}}, {"type": "Feature", "geometry": {"type": "Point", "coordinates": [16.3337891, 48.18489779999999]}, "properties": {"name": "SPAR", "price_level": 1, "rating": 4.2, "number_of_ratings": 461, "address": "Storchengasse 2, Wien"}}, {"type": "Feature", "geometry": {"type": "Point", "coordinates": [16.3786297, 48.2481079]}, "properties": {"name": "SPAR", "price_level": 1, "rating": 4.1, "number_of_ratings": 319, "address": "Wehlistra\u00dfe 25, Wien"}}, {"type": "Feature", "geometry": {"type": "Point", "coordinates": [16.3644215, 48.2266079]}, "properties": {"name": "SPAR Dakic 1090 Wien", "price_level": 1, "rating": 4.1, "number_of_ratings": 313, "address": "Ro\u00dfauer L\u00e4nde 47/49, Wien"}}]}