{"type": "FeatureCollection", "features": [{"type": "Feature", "geometry": {"type": "Point", "coordinates": [16.3511896, 48.2142139]}, "properties": {"name": "Flip n Dip", "price_level": 2, "rating": 4.8, "number_of_ratings": 463, "address": "Lange G. 74, Wien"}}, {"type": "Feature", "geometry": {"type": "Point", "coordinates": [16.3619576, 48.2179244]}, "properties": {"name": "Mr. Noodle", "price_level": 1, "rating": 4.6, "number_of_ratings": 350, "address": "Liechtensteinstra\u00dfe 16, Wien"}}, {"type": "Feature", "geometry": {"type": "Point", "coordinates": [16.3511785, 48.2144043]}, "properties": {"name": "Yami Noodles", "price_level": 1, "rating": 4.6, "number_of_ratings": 90, "address": "Lange G. 76, Wien"}}, {"type": "Feature", "geometry": {"type": "Point", "coordinates": [16.365836, 48.2138313]}, "properties": {"name": "SERVUS Wien Hohenstaufengasse", "price_level": 2, "rating": 4.6, "number_of_ratings": 483, "address": "Hohenstaufengasse 9, Wien"}}, {"type": "Feature", "geometry": {"type": "Point", "coordinates": [16.3626837, 48.2171023]}, "properties": {"name": "Der Wiener Deewan", "price_level": 1, "rating": 4.6, "number_of_ratings": 2950, "address": "Liechtensteinstra\u00dfe 10, Wien"}}, {"type": "Feature", "geometry": {"type": "Point", "coordinates": [16.3591613, 48.2175246]}, "properties": {"name": "Feine Sichuan K\u00fcche", "price_level": 2, "rating": 4.6, "number_of_ratings": 406, "address": "W\u00e4hringer Str. 18, Wien"}}, {"type": "Feature", "geometry": {"type": "Point", "coordinates": [16.3642041, 48.2186557]}, "properties": {"name": "\"Pizzeria\" Candis", "price_level": 1, "rating": 4.5, "number_of_ratings": 316, "address": "Schlickgasse 5, Wien"}}, {"type": "Feature", "geometry": {"type": "Point", "coordinates": [16.3547222, 48.21223]}, "properties": {"name": "Pizzeria Scarabocchio", "price_level": 2, "rating": 4.5, "number_of_ratings": 2370, "address": "Florianigasse 3, Wien"}}, {"type": "Feature", "geometry": {"type": "Point", "coordinates": [16.3516611, 48.21482690000001]}, "properties": {"name": "D\u00f6nermeister", "price_level": 2, "rating": 4.5, "number_of_ratings": 756, "address": "Alser Str. 19, Wien"}}, {"type": "Feature", "geometry": {"type": "Point", "coordinates": [16.3598044, 48.2164115]}, "properties": {"name": "Restaurant Roth", "price_level": 2, "rating": 4.5, "number_of_ratings": 438, "address": "W\u00e4hringer Str. 1, Wien"}}]}