{"type": "FeatureCollection", "features": [{"type": "Feature", "geometry": {"type": "Point", "coordinates": [16.3437111, 48.21366159999999]}, "properties": {"name": "Vevi Restaurant", "price_level": 2, "rating": 4.9, "number_of_ratings": 309, "address": "Albertgasse 51, Wien"}}, {"type": "Feature", "geometry": {"type": "Point", "coordinates": [16.3511896, 48.2142139]}, "properties": {"name": "Flip n Dip", "price_level": 2, "rating": 4.8, "number_of_ratings": 463, "address": "Lange G. 74, Wien"}}, {"type": "Feature", "geometry": {"type": "Point", "coordinates": [16.3528651, 48.2223661]}, "properties": {"name": "Swing Kitchen", "price_level": 2, "rating": 4.6, "number_of_ratings": 1158, "address": "W\u00e4hringer Str. 47 / 2, Wien"}}, {"type": "Feature", "geometry": {"type": "Point", "coordinates": [16.3447845, 48.2058221]}, "properties": {"name": "Marks", "price_level": 2, "rating": 4.6, "number_of_ratings": 1007, "address": "Neustiftgasse 82, Wien"}}, {"type": "Feature", "geometry": {"type": "Point", "coordinates": [16.3726114, 48.2098614]}, "properties": {"name": "Restaurant Wrenkh Wiener Kochsalon", "price_level": 2, "rating": 4.6, "number_of_ratings": 905, "address": "Bauernmarkt 10, Wien"}}, {"type": "Feature", "geometry": {"type": "Point", "coordinates": [16.3618223, 48.2128332]}, "properties": {"name": "Swing Kitchen", "price_level": 2, "rating": 4.5, "number_of_ratings": 693, "address": "Universit\u00e4tsring 10, Wien"}}, {"type": "Feature", "geometry": {"type": "Point", "coordinates": [16.3440939, 48.2104783]}, "properties": {"name": "Swing Kitchen", "price_level": 2, "rating": 4.5, "number_of_ratings": 1372, "address": "Josefst\u00e4dter Str. 73, Wien"}}, {"type": "Feature", "geometry": {"type": "Point", "coordinates": [16.3722996, 48.2129363]}, "properties": {"name": "Veggiezz", "price_level": 2, "rating": 4.4, "number_of_ratings": 1905, "address": "Salzgries 9, Wien"}}, {"type": "Feature", "geometry": {"type": "Point", "coordinates": [16.3531762, 48.2155026]}, "properties": {"name": "Salettl am Campus", "price_level": 2, "rating": 4.4, "number_of_ratings": 516, "address": "Alser Str. 4, Wien"}}, {"type": "Feature", "geometry": {"type": "Point", "coordinates": [16.3571932, 48.21664430000001]}, "properties": {"name": "Welt Cafe (world Cafe)", "price_level": 2, "rating": 4.3, "number_of_ratings": 1286, "address": "Schwarzspanierstra\u00dfe 15, Wien"}}]}