{"type": "FeatureCollection", "features": [{"type": "Feature", "geometry": {"type": "Point", "coordinates": [16.3397082, 48.1906301]}, "properties": {"name": "Bauernbr\u00e4u", "price_level": 2, "rating": 4.8, "number_of_ratings": 2286, "address": "Gumpendorfer Str. 134/136, Wien"}}, {"type": "Feature", "geometry": {"type": "Point", "coordinates": [16.362116, 48.2121732]}, "properties": {"name": "Gasthaus zum Holunderstrauch", "price_level": 1, "rating": 4.7, "number_of_ratings": 729, "address": "Schreyvogelgasse 3, Wien"}}, {"type": "Feature", "geometry": {"type": "Point", "coordinates": [16.3691279, 48.2021599]}, "properties": {"name": "Kaiser's \u2013 Kaiser'schmarrn", "price_level": 2, "rating": 4.7, "number_of_ratings": 314, "address": "Opernringhof, Opernring 1, Wien"}}, {"type": "Feature", "geometry": {"type": "Point", "coordinates": [16.3302519, 48.18925]}, "properties": {"name": "Gasthaus Quell", "price_level": 2, "rating": 4.7, "number_of_ratings": 1422, "address": "Reindorfgasse 19, Oelweingasse 1, Wien"}}, {"type": "Feature", "geometry": {"type": "Point", "coordinates": [16.3754163, 48.2043279]}, "properties": {"name": "Huth Gastwirtschaft", "price_level": 2, "rating": 4.6, "number_of_ratings": 2589, "address": "Schellinggasse 5, Wien"}}, {"type": "Feature", "geometry": {"type": "Point", "coordinates": [16.3492403, 48.1953597]}, "properties": {"name": "Steman", "price_level": 2, "rating": 4.5, "number_of_ratings": 1650, "address": "Austria, Otto-Bauer-Gasse 7, Wien"}}, {"type": "Feature", "geometry": {"type": "Point", "coordinates": [16.369059, 48.2055745]}, "properties": {"name": "Gasthaus Reinthaler", "price_level": 1, "rating": 4.5, "number_of_ratings": 2857, "address": "Gluckgasse 5, Wien"}}, {"type": "Feature", "geometry": {"type": "Point", "coordinates": [16.3591994, 48.1910204]}, "properties": {"name": "Silberwirt", "price_level": 2, "rating": 4.4, "number_of_ratings": 2123, "address": "Schlossgasse 21, Wien"}}, {"type": "Feature", "geometry": {"type": "Point", "coordinates": [16.373828, 48.2066898]}, "properties": {"name": "Gasthaus P\u00f6schl", "price_level": 2, "rating": 4.4, "number_of_ratings": 2470, "address": "Weihburggasse 17, Wien"}}, {"type": "Feature", "geometry": {"type": "Point", "coordinates": [16.3733366, 48.2010175]}, "properties": {"name": "Caf\u00e9 Imperial Wien", "price_level": 3, "rating": 4.4, "number_of_ratings": 1304, "address": "K\u00e4rntner Ring 16, Wien"}}]}